[
	{
		"BLK_NO": "10",
		"ROAD_NAME": "PASIR RIS CENTRAL",
		"BUILDING": "PASIR RIS MRT STATION",
		"ADDRESS": "10 PASIR RIS CENTRAL, SINGAPORE 519634",
		"POSTAL": "519634",
		"X": "40905.6061496",
		"Y": "39449.9708076",
		"LATITUDE": "1.37304321206",
		"LONGITUDE": "103.949284606",
		"CODE": "EW1",
		"FUTURE": false
	},
	{
		"BLK_NO": "20",
		"ROAD_NAME": "TAMPINES CENTRAL 1",
		"BUILDING": "TAMPINES MRT STATION",
		"ADDRESS": "20 TAMPINES CENTRAL 1, SINGAPORE 529538",
		"POSTAL": "529538",
		"X": "40444.9965695",
		"Y": "37266.9972092",
		"LATITUDE": "1.35330141358",
		"LONGITUDE": "103.945144797",
		"CODE": "EW2",
		"FUTURE": false
	},
	{
		"BLK_NO": "30",
		"ROAD_NAME": "SIMEI STREET 3",
		"BUILDING": "SIMEI MRT STATION",
		"ADDRESS": "30 SIMEI STREET 3, SINGAPORE 529888",
		"POSTAL": "529888",
		"X": "41360.6137918",
		"Y": "36150.3958835",
		"LATITUDE": "1.34320289478",
		"LONGITUDE": "103.953371694",
		"CODE": "EW3",
		"FUTURE": false
	},
	{
		"BLK_NO": "920",
		"ROAD_NAME": "NEW UPPER CHANGI ROAD",
		"BUILDING": "TANAH MERAH MRT STATION",
		"ADDRESS": "920 NEW UPPER CHANGI ROAD, SINGAPORE 467356",
		"POSTAL": "467356",
		"X": "40578.8615703",
		"Y": "34379.4143704",
		"LATITUDE": "1.32718713427",
		"LONGITUDE": "103.94634646",
		"CODE": "EW4",
		"FUTURE": false
	},
	{
		"BLK_NO": "315",
		"ROAD_NAME": "NEW UPPER CHANGI ROAD",
		"BUILDING": "BEDOK MRT STATION",
		"ADDRESS": "315 NEW UPPER CHANGI ROAD, SINGAPORE 467347",
		"POSTAL": "467347",
		"X": "38757.9520495",
		"Y": "34024.7047772",
		"LATITUDE": "1.32397996868",
		"LONGITUDE": "103.929984495",
		"CODE": "EW5",
		"FUTURE": false
	},
	{
		"BLK_NO": "55",
		"ROAD_NAME": "SIMS AVENUE EAST",
		"BUILDING": "KEMBANGAN MRT STATION",
		"ADDRESS": "55 SIMS AVENUE EAST, SINGAPORE 416551",
		"POSTAL": "416551",
		"X": "36862.1236694",
		"Y": "33699.3567627",
		"LATITUDE": "1.32103824851",
		"LONGITUDE": "103.912949388",
		"CODE": "EW6",
		"FUTURE": false
	},
	{
		"BLK_NO": "30",
		"ROAD_NAME": "EUNOS CRESCENT",
		"BUILDING": "EUNOS MRT STATION",
		"ADDRESS": "30 EUNOS CRESCENT, SINGAPORE 409423",
		"POSTAL": "409423",
		"X": "35824.6205456",
		"Y": "33566.6463947",
		"LATITUDE": "1.31983834675",
		"LONGITUDE": "103.903626852",
		"CODE": "EW7",
		"FUTURE": false
	},
	{
		"BLK_NO": "30",
		"ROAD_NAME": "PAYA LEBAR ROAD",
		"BUILDING": "PAYA LEBAR MRT STATION",
		"ADDRESS": "30 PAYA LEBAR ROAD, SINGAPORE 409006",
		"POSTAL": "409006",
		"X": "34648.6772941",
		"Y": "33375.7340536",
		"LATITUDE": "1.31811208188",
		"LONGITUDE": "103.893060355",
		"CODE": "EW8",
		"FUTURE": false
	},
	{
		"BLK_NO": "81",
		"ROAD_NAME": "LORONG 25 GEYLANG",
		"BUILDING": "ALJUNIED MRT STATION",
		"ADDRESS": "81 LORONG 25 GEYLANG, SINGAPORE 388310",
		"POSTAL": "388310",
		"X": "33518.6048693",
		"Y": "33190.0020175",
		"LATITUDE": "1.31643261182",
		"LONGITUDE": "103.882906044",
		"CODE": "EW9",
		"FUTURE": false
	},
	{
		"BLK_NO": "5",
		"ROAD_NAME": "SIMS AVENUE",
		"BUILDING": "KALLANG MRT STATION",
		"ADDRESS": "5 SIMS AVENUE, SINGAPORE 387405",
		"POSTAL": "387405",
		"X": "32236.6038438",
		"Y": "32643.3302383",
		"LATITUDE": "1.31148890999",
		"LONGITUDE": "103.871386542",
		"CODE": "EW10",
		"FUTURE": false
	},
	{
		"BLK_NO": "50",
		"ROAD_NAME": "KALLANG ROAD",
		"BUILDING": "LAVENDER MRT STATION",
		"ADDRESS": "50 KALLANG ROAD, SINGAPORE 208699",
		"POSTAL": "208699",
		"X": "31277.4062035",
		"Y": "32188.6996141",
		"LATITUDE": "1.30737750843",
		"LONGITUDE": "103.862767634",
		"CODE": "EW11",
		"FUTURE": false
	},
	{
		"BLK_NO": "220",
		"ROAD_NAME": "VICTORIA STREET",
		"BUILDING": "BUGIS MRT STATION",
		"ADDRESS": "220 VICTORIA STREET, SINGAPORE 188022",
		"POSTAL": "188022",
		"X": "30491.5648077",
		"Y": "31424.3502725",
		"LATITUDE": "1.30046507607",
		"LONGITUDE": "103.855706414",
		"CODE": "EW12",
		"FUTURE": false
	},
	{
		"BLK_NO": "150",
		"ROAD_NAME": "NORTH BRIDGE ROAD",
		"BUILDING": "CITY HALL MRT STATION",
		"ADDRESS": "150 NORTH BRIDGE ROAD, SINGAPORE 179100",
		"POSTAL": "179100",
		"X": "30144.2850663",
		"Y": "30591.8477531",
		"LATITUDE": "1.29293624242",
		"LONGITUDE": "103.852585892",
		"CODE": "EW13",
		"FUTURE": false
	},
	{
		"BLK_NO": "5",
		"ROAD_NAME": "RAFFLES PLACE",
		"BUILDING": "RAFFLES PLACE MRT STATION",
		"ADDRESS": "5 RAFFLES PLACE, SINGAPORE 048618",
		"POSTAL": "048618",
		"X": "30019.1805279",
		"Y": "29617.6125849",
		"LATITUDE": "1.28412561044",
		"LONGITUDE": "103.851461712",
		"CODE": "EW14",
		"FUTURE": false
	},
	{
		"BLK_NO": "120",
		"ROAD_NAME": "MAXWELL ROAD",
		"BUILDING": "TANJONG PAGAR MRT STATION",
		"ADDRESS": "120 MAXWELL ROAD, SINGAPORE 069119",
		"POSTAL": "069119",
		"X": "29406.020885",
		"Y": "28785.9618973",
		"LATITUDE": "1.2766044867",
		"LONGITUDE": "103.845952195",
		"CODE": "EW15",
		"FUTURE": false
	},
	{
		"BLK_NO": "10",
		"ROAD_NAME": "OUTRAM ROAD",
		"BUILDING": "OUTRAM PARK MRT STATION",
		"ADDRESS": "10 OUTRAM ROAD, SINGAPORE 169037",
		"POSTAL": "169037",
		"X": "28646.3738563",
		"Y": "29316.7727082",
		"LATITUDE": "1.2814049782",
		"LONGITUDE": "103.839126497",
		"CODE": "EW16",
		"FUTURE": false
	},
	{
		"BLK_NO": "300",
		"ROAD_NAME": "TIONG BAHRU ROAD",
		"BUILDING": "TIONG BAHRU MRT STATION",
		"ADDRESS": "300 TIONG BAHRU ROAD, SINGAPORE 168731",
		"POSTAL": "168731",
		"X": "27346.3322651",
		"Y": "29836.2044219",
		"LATITUDE": "1.28610253616",
		"LONGITUDE": "103.827445112",
		"CODE": "EW17",
		"FUTURE": false
	},
	{
		"BLK_NO": "920",
		"ROAD_NAME": "TIONG BAHRU ROAD",
		"BUILDING": "REDHILL MRT STATION",
		"ADDRESS": "920 TIONG BAHRU ROAD, SINGAPORE 158792",
		"POSTAL": "158792",
		"X": "26155.0532554",
		"Y": "30226.7597223",
		"LATITUDE": "1.28963453358",
		"LONGITUDE": "103.81674097",
		"CODE": "EW18",
		"FUTURE": false
	},
	{
		"BLK_NO": "301",
		"ROAD_NAME": "COMMONWEALTH AVENUE",
		"BUILDING": "QUEENSTOWN MRT STATION",
		"ADDRESS": "301 COMMONWEALTH AVENUE, SINGAPORE 149729",
		"POSTAL": "149729",
		"X": "24968.2673462",
		"Y": "30770.3911128",
		"LATITUDE": "1.29455085185",
		"LONGITUDE": "103.806077156",
		"CODE": "EW19",
		"FUTURE": false
	},
	{
		"BLK_NO": "375",
		"ROAD_NAME": "COMMONWEALTH AVENUE",
		"BUILDING": "COMMONWEALTH MRT STATION",
		"ADDRESS": "375 COMMONWEALTH AVENUE, SINGAPORE 149735",
		"POSTAL": "149735",
		"X": "24094.5286035",
		"Y": "31650.3218375",
		"LATITUDE": "1.30250853705",
		"LONGITUDE": "103.798226128",
		"CODE": "EW20",
		"FUTURE": false
	},
	{
		"BLK_NO": "100",
		"ROAD_NAME": "NORTH BUONA VISTA ROAD",
		"BUILDING": "BUONA VISTA MRT STATION",
		"ADDRESS": "100 NORTH BUONA VISTA ROAD, SINGAPORE 139345",
		"POSTAL": "139345",
		"X": "23207.257802",
		"Y": "32171.7150982",
		"LATITUDE": "1.3072237082",
		"LONGITUDE": "103.790253515",
		"CODE": "EW21",
		"FUTURE": false
	},
	{
		"BLK_NO": "200",
		"ROAD_NAME": "COMMONWEALTH AVENUE WEST",
		"BUILDING": "DOVER MRT STATION",
		"ADDRESS": "200 COMMONWEALTH AVENUE WEST, SINGAPORE 138677",
		"POSTAL": "138677",
		"X": "21914.5509301",
		"Y": "32634.1186314",
		"LATITUDE": "1.31140529321",
		"LONGITUDE": "103.778637842",
		"CODE": "EW22",
		"FUTURE": false
	},
	{
		"BLK_NO": "3150",
		"ROAD_NAME": "COMMONWEALTH AVENUE WEST",
		"BUILDING": "CLEMENTI MRT STATION",
		"ADDRESS": "3150 COMMONWEALTH AVENUE WEST, SINGAPORE 129580",
		"POSTAL": "129580",
		"X": "20417.103456",
		"Y": "33053.8945525",
		"LATITUDE": "1.31520126352",
		"LONGITUDE": "103.765182447",
		"CODE": "EW23",
		"FUTURE": false
	},
	{
		"BLK_NO": "10",
		"ROAD_NAME": "JURONG EAST STREET 12",
		"BUILDING": "JURONG EAST MRT STATION",
		"ADDRESS": "10 JURONG EAST STREET 12, SINGAPORE 609690",
		"POSTAL": "609690",
		"X": "17869.0806001",
		"Y": "35038.9471977",
		"LATITUDE": "1.33315261987",
		"LONGITUDE": "103.742286544",
		"CODE": "EW24",
		"FUTURE": false
	},
	{
		"BLK_NO": "151",
		"ROAD_NAME": "BOON LAY WAY",
		"BUILDING": "CHINESE GARDEN MRT STATION",
		"ADDRESS": "151 BOON LAY WAY, SINGAPORE 609959",
		"POSTAL": "609959",
		"X": "16790.7466322",
		"Y": "36056.3018933",
		"LATITUDE": "1.34235282081",
		"LONGITUDE": "103.732596738",
		"CODE": "EW25",
		"FUTURE": false
	},
	{
		"BLK_NO": "201",
		"ROAD_NAME": "BOON LAY WAY",
		"BUILDING": "LAKESIDE MRT STATION",
		"ADDRESS": "201 BOON LAY WAY, SINGAPORE 649845",
		"POSTAL": "649845",
		"X": "15494.5171119",
		"Y": "36267.1619555",
		"LATITUDE": "1.3442592499",
		"LONGITUDE": "103.720949269",
		"CODE": "EW26",
		"FUTURE": false
	},
	{
		"BLK_NO": "301",
		"ROAD_NAME": "BOON LAY WAY",
		"BUILDING": "BOON LAY MRT STATION",
		"ADDRESS": "301 BOON LAY WAY, SINGAPORE 649846",
		"POSTAL": "649846",
		"X": "13837.9827195",
		"Y": "35641.9191216",
		"LATITUDE": "1.3386040547",
		"LONGITUDE": "103.706064623",
		"CODE": "EW27",
		"FUTURE": false
	},
	{
		"BLK_NO": "31",
		"ROAD_NAME": "JURONG WEST STREET 63",
		"BUILDING": "PIONEER MRT STATION",
		"ADDRESS": "31 JURONG WEST STREET 63, SINGAPORE 648310",
		"POSTAL": "648310",
		"X": "12864.959209",
		"Y": "35529.4973224",
		"LATITUDE": "1.33758688241",
		"LONGITUDE": "103.697321513",
		"CODE": "EW28",
		"FUTURE": false
	},
	{
		"BLK_NO": "91",
		"ROAD_NAME": "JOO KOON CIRCLE",
		"BUILDING": "JOO KOON MRT STATION",
		"ADDRESS": "91 JOO KOON CIRCLE, SINGAPORE 629116",
		"POSTAL": "629116",
		"X": "10756.3544099",
		"Y": "34438.2764275",
		"LATITUDE": "1.32771717334",
		"LONGITUDE": "103.678375144",
		"CODE": "EW29",
		"FUTURE": false
	},
	{
		"BLK_NO": "7A",
		"ROAD_NAME": "TUAS ROAD",
		"BUILDING": "GUL CIRCLE MRT STATION",
		"ADDRESS": "7A TUAS ROAD, SINGAPORE 637288",
		"POSTAL": "637288",
		"X": "8772.85526894",
		"Y": "33530.367492",
		"LATITUDE": "1.31950521487",
		"LONGITUDE": "103.660552957",
		"CODE": "EW30",
		"FUTURE": true
	},
	{
		"BLK_NO": "90",
		"ROAD_NAME": "PIONEER ROAD",
		"BUILDING": "TUAS CRESCENT MRT STATION",
		"ADDRESS": "90 PIONEER ROAD, SINGAPORE 639608",
		"POSTAL": "639608",
		"X": "7495.53094967",
		"Y": "33698.681817",
		"LATITUDE": "1.3210265534",
		"LONGITUDE": "103.649075478",
		"CODE": "EW31",
		"FUTURE": true
	},
	{
		"BLK_NO": "131",
		"ROAD_NAME": "PIONEER ROAD",
		"BUILDING": "TUAS WEST ROAD MRT STATION",
		"ADDRESS": "131 PIONEER ROAD, SINGAPORE 639609",
		"POSTAL": "639609",
		"X": "6442.64012777",
		"Y": "34689.7988017",
		"LATITUDE": "1.32998908906",
		"LONGITUDE": "103.639614056",
		"CODE": "EW32",
		"FUTURE": true
	},
	{
		"BLK_NO": "20",
		"ROAD_NAME": "TUAS WEST DRIVE",
		"BUILDING": "TUAS LINK MRT STATION",
		"ADDRESS": "20 TUAS WEST DRIVE, SINGAPORE 638418",
		"POSTAL": "638418",
		"X": "6150.21459919",
		"Y": "35892.5526765",
		"LATITUDE": "1.34086609542",
		"LONGITUDE": "103.636985602",
		"CODE": "EW33",
		"FUTURE": true
	},
	{
		"BLK_NO": "21",
		"ROAD_NAME": "CHANGI SOUTH AVENUE 1",
		"BUILDING": "EXPO MRT STATION",
		"ADDRESS": "21 CHANGI SOUTH AVENUE 1, SINGAPORE 486065",
		"POSTAL": "486065",
		"X": "42270.6232345",
		"Y": "35193.6223454",
		"LATITUDE": "1.33454977825",
		"LONGITUDE": "103.961548211",
		"CODE": "CG1",
		"FUTURE": false
	},
	{
		"BLK_NO": "70",
		"ROAD_NAME": "AIRPORT BOULEVARD",
		"BUILDING": "CHANGI AIRPORT MRT STATION",
		"ADDRESS": "70 AIRPORT BOULEVARD, SINGAPORE 819661",
		"POSTAL": "819661",
		"X": "45201.3203947",
		"Y": "37729.1933765",
		"LATITUDE": "1.35747897448",
		"LONGITUDE": "103.98788357",
		"CODE": "CG2",
		"FUTURE": false
	},
	{
		"BLK_NO": "10",
		"ROAD_NAME": "JURONG EAST STREET 12",
		"BUILDING": "JURONG EAST MRT STATION",
		"ADDRESS": "10 JURONG EAST STREET 12, SINGAPORE 609690",
		"POSTAL": "609690",
		"X": "17869.0806001",
		"Y": "35038.9471977",
		"LATITUDE": "1.33315261987",
		"LONGITUDE": "103.742286544",
		"CODE": "NS1",
		"FUTURE": false
	},
	{
		"BLK_NO": "10",
		"ROAD_NAME": "BUKIT BATOK CENTRAL",
		"BUILDING": "BUKIT BATOK MRT STATION",
		"ADDRESS": "10 BUKIT BATOK CENTRAL, SINGAPORE 659958",
		"POSTAL": "659958",
		"X": "18679.3541308",
		"Y": "36795.0141013",
		"LATITUDE": "1.34903410859",
		"LONGITUDE": "103.749566764",
		"CODE": "NS2",
		"FUTURE": false
	},
	{
		"BLK_NO": "802",
		"ROAD_NAME": "BUKIT BATOK WEST AVENUE 5",
		"BUILDING": "BUKIT GOMBAK MRT STATION",
		"ADDRESS": "802 BUKIT BATOK WEST AVENUE 5, SINGAPORE 659083",
		"POSTAL": "659083",
		"X": "18926.9127007",
		"Y": "37854.0358849",
		"LATITUDE": "1.35861159094",
		"LONGITUDE": "103.751790911",
		"CODE": "NS3",
		"FUTURE": false
	},
	{
		"BLK_NO": "10",
		"ROAD_NAME": "CHOA CHU KANG AVENUE 4",
		"BUILDING": "CHOA CHU KANG MRT STATION",
		"ADDRESS": "10 CHOA CHU KANG AVENUE 4, SINGAPORE 689810",
		"POSTAL": "689810",
		"X": "18101.2472041",
		"Y": "40812.1216052",
		"LATITUDE": "1.3853631654",
		"LONGITUDE": "103.74437078",
		"CODE": "NS4",
		"FUTURE": false
	},
	{
		"BLK_NO": "61",
		"ROAD_NAME": "CHOA CHU KANG DRIVE",
		"BUILDING": "YEW TEE MRT STATION",
		"ADDRESS": "61 CHOA CHU KANG DRIVE, SINGAPORE 689715",
		"POSTAL": "689715",
		"X": "18438.979122",
		"Y": "42158.0123815",
		"LATITUDE": "1.39753501763",
		"LONGITUDE": "103.747405114",
		"CODE": "NS5",
		"FUTURE": false
	},
	{
		"BLK_NO": "960",
		"ROAD_NAME": "WOODLANDS ROAD",
		"BUILDING": "KRANJI MRT STATION",
		"ADDRESS": "960 WOODLANDS ROAD, SINGAPORE 738702",
		"POSTAL": "738702",
		"X": "20078.5865077",
		"Y": "45204.5168451",
		"LATITUDE": "1.42508698074",
		"LONGITUDE": "103.762137459",
		"CODE": "NS7",
		"FUTURE": false
	},
	{
		"BLK_NO": "71",
		"ROAD_NAME": "WOODLANDS AVENUE 3",
		"BUILDING": "MARSILING MRT STATION",
		"ADDRESS": "71 WOODLANDS AVENUE 3, SINGAPORE 739044",
		"POSTAL": "739044",
		"X": "21407.0413212",
		"Y": "46026.5125302",
		"LATITUDE": "1.43252114855",
		"LONGITUDE": "103.774074641",
		"CODE": "NS8",
		"FUTURE": false
	},
	{
		"BLK_NO": "30",
		"ROAD_NAME": "WOODLANDS AVENUE 2",
		"BUILDING": "WOODLANDS MRT STATION",
		"ADDRESS": "30 WOODLANDS AVENUE 2, SINGAPORE 738343",
		"POSTAL": "738343",
		"X": "22785.6286025",
		"Y": "46518.2186195",
		"LATITUDE": "1.43696824751",
		"LONGITUDE": "103.786462452",
		"CODE": "NS9",
		"FUTURE": false
	},
	{
		"BLK_NO": "70",
		"ROAD_NAME": "WOODLANDS AVENUE 7",
		"BUILDING": "ADMIRALTY MRT STATION",
		"ADDRESS": "70 WOODLANDS AVENUE 7, SINGAPORE 738344",
		"POSTAL": "738344",
		"X": "24402.1062545",
		"Y": "46918.113076",
		"LATITUDE": "1.44058500087",
		"LONGITUDE": "103.800988",
		"CODE": "NS10",
		"FUTURE": false
	},
	{
		"BLK_NO": "11",
		"ROAD_NAME": "CANBERRA ROAD",
		"BUILDING": "SEMBAWANG MRT STATION",
		"ADDRESS": "11 CANBERRA ROAD, SINGAPORE 759775",
		"POSTAL": "759775",
		"X": "26522.9882624",
		"Y": "47854.1998396",
		"LATITUDE": "1.44905082159",
		"LONGITUDE": "103.82004614",
		"CODE": "NS11",
		"FUTURE": false
	},
	{
		"BLK_NO": "301",
		"ROAD_NAME": "YISHUN AVENUE 2",
		"BUILDING": "YISHUN MRT STATION",
		"ADDRESS": "301 YISHUN AVENUE 2, SINGAPORE 769093",
		"POSTAL": "769093",
		"X": "28187.6787262",
		"Y": "45686.0700539",
		"LATITUDE": "1.42944308039",
		"LONGITUDE": "103.835005046",
		"CODE": "NS13",
		"FUTURE": false
	},
	{
		"BLK_NO": "201",
		"ROAD_NAME": "YISHUN AVENUE 2",
		"BUILDING": "KHATIB MRT STATION",
		"ADDRESS": "201 YISHUN AVENUE 2, SINGAPORE 769092",
		"POSTAL": "769092",
		"X": "27962.3108562",
		"Y": "44352.5679936",
		"LATITUDE": "1.4173833701",
		"LONGITUDE": "103.832979908",
		"CODE": "NS14",
		"FUTURE": false
	},
	{
		"BLK_NO": "3000",
		"ROAD_NAME": "ANG MO KIO AVENUE 8",
		"BUILDING": "YIO CHU KANG MRT STATION",
		"ADDRESS": "3000 ANG MO KIO AVENUE 8, SINGAPORE 569813",
		"POSTAL": "569813",
		"X": "29294.1283215",
		"Y": "40413.0820377",
		"LATITUDE": "1.38175604645",
		"LONGITUDE": "103.84494729",
		"CODE": "NS15",
		"FUTURE": false
	},
	{
		"BLK_NO": "2450",
		"ROAD_NAME": "ANG MO KIO AVENUE 8",
		"BUILDING": "ANG MO KIO MRT STATION",
		"ADDRESS": "2450 ANG MO KIO AVENUE 8, SINGAPORE 569811",
		"POSTAL": "569811",
		"X": "29807.2654449",
		"Y": "39105.7720139",
		"LATITUDE": "1.36993317536",
		"LONGITUDE": "103.849558131",
		"CODE": "NS16",
		"FUTURE": false
	},
	{
		"BLK_NO": "200",
		"ROAD_NAME": "BISHAN ROAD",
		"BUILDING": "BISHAN MRT STATION",
		"ADDRESS": "200 BISHAN ROAD, SINGAPORE 579827",
		"POSTAL": "579827",
		"X": "29649.8988075",
		"Y": "36994.433017",
		"LATITUDE": "1.35083898785",
		"LONGITUDE": "103.848143965",
		"CODE": "NS17",
		"FUTURE": false
	},
	{
		"BLK_NO": "377",
		"ROAD_NAME": "LORONG 1 TOA PAYOH",
		"BUILDING": "BRADDELL MRT STATION",
		"ADDRESS": "377 LORONG 1 TOA PAYOH, SINGAPORE 319756",
		"POSTAL": "319756",
		"X": "29500.0971684",
		"Y": "35848.0686683",
		"LATITUDE": "1.34047168416",
		"LONGITUDE": "103.846797845",
		"CODE": "NS18",
		"FUTURE": false
	},
	{
		"BLK_NO": "510",
		"ROAD_NAME": "LORONG 6 TOA PAYOH",
		"BUILDING": "TOA PAYOH MRT STATION",
		"ADDRESS": "510 LORONG 6 TOA PAYOH, SINGAPORE 319398",
		"POSTAL": "319398",
		"X": "29578.4407895",
		"Y": "34980.863845",
		"LATITUDE": "1.33262898753",
		"LONGITUDE": "103.847501764",
		"CODE": "NS19",
		"FUTURE": false
	},
	{
		"BLK_NO": "250",
		"ROAD_NAME": "THOMSON ROAD",
		"BUILDING": "NOVENA MRT STATION",
		"ADDRESS": "250 THOMSON ROAD, SINGAPORE 307642",
		"POSTAL": "307642",
		"X": "29169.3297925",
		"Y": "33633.1535391",
		"LATITUDE": "1.3204407912",
		"LONGITUDE": "103.843825619",
		"CODE": "NS20",
		"FUTURE": false
	},
	{
		"BLK_NO": "49",
		"ROAD_NAME": "SCOTTS ROAD",
		"BUILDING": "NEWTON MRT STATION",
		"ADDRESS": "49 SCOTTS ROAD, SINGAPORE 228234",
		"POSTAL": "228234",
		"X": "28519.3615875",
		"Y": "32735.2071894",
		"LATITUDE": "1.31232009946",
		"LONGITUDE": "103.8379853",
		"CODE": "NS21",
		"FUTURE": false
	},
	{
		"BLK_NO": "437",
		"ROAD_NAME": "ORCHARD ROAD",
		"BUILDING": "ORCHARD MRT STATION",
		"ADDRESS": "437 ORCHARD ROAD, SINGAPORE 238878",
		"POSTAL": "238878",
		"X": "27880.1256226",
		"Y": "31813.1134661",
		"LATITUDE": "1.30398101303",
		"LONGITUDE": "103.832241452",
		"CODE": "NS22",
		"FUTURE": false
	},
	{
		"BLK_NO": "1",
		"ROAD_NAME": "SOMERSET ROAD",
		"BUILDING": "SOMERSET MRT STATION",
		"ADDRESS": "1 SOMERSET ROAD, SINGAPORE 238162",
		"POSTAL": "238162",
		"X": "28640.6559921",
		"Y": "31401.6698064",
		"LATITUDE": "1.30026005512",
		"LONGITUDE": "103.839075162",
		"CODE": "NS23",
		"FUTURE": false
	},
	{
		"BLK_NO": "11",
		"ROAD_NAME": "ORCHARD ROAD",
		"BUILDING": "DHOBY GHAUT MRT STATION",
		"ADDRESS": "11 ORCHARD ROAD, SINGAPORE 238826",
		"POSTAL": "238826",
		"X": "29424.1448391",
		"Y": "31229.3142517",
		"LATITUDE": "1.29870130619",
		"LONGITUDE": "103.846115155",
		"CODE": "NS24",
		"FUTURE": false
	},
	{
		"BLK_NO": "150",
		"ROAD_NAME": "NORTH BRIDGE ROAD",
		"BUILDING": "CITY HALL MRT STATION",
		"ADDRESS": "150 NORTH BRIDGE ROAD, SINGAPORE 179100",
		"POSTAL": "179100",
		"X": "30144.2850663",
		"Y": "30591.8477531",
		"LATITUDE": "1.29293624242",
		"LONGITUDE": "103.852585892",
		"CODE": "NS25",
		"FUTURE": false
	},
	{
		"BLK_NO": "5",
		"ROAD_NAME": "RAFFLES PLACE",
		"BUILDING": "RAFFLES PLACE MRT STATION",
		"ADDRESS": "5 RAFFLES PLACE, SINGAPORE 048618",
		"POSTAL": "048618",
		"X": "30019.1805279",
		"Y": "29617.6125849",
		"LATITUDE": "1.28412561044",
		"LONGITUDE": "103.851461712",
		"CODE": "NS26",
		"FUTURE": false
	},
	{
		"BLK_NO": "21",
		"ROAD_NAME": "PARK STREET",
		"BUILDING": "MARINA BAY MRT STATION",
		"ADDRESS": "21 PARK STREET, SINGAPORE 018925",
		"POSTAL": "018925",
		"X": "30368.2056424",
		"Y": "28766.3818716",
		"LATITUDE": "1.27642735449",
		"LONGITUDE": "103.854597777",
		"CODE": "NS27",
		"FUTURE": false
	},
	{
		"BLK_NO": "33",
		"ROAD_NAME": "MARINA COASTAL DRIVE",
		"BUILDING": "MARINA SOUTH PIER MRT STATION",
		"ADDRESS": "33 MARINA COASTAL DRIVE, SINGAPORE 018948",
		"POSTAL": "018948",
		"X": "31241.826007",
		"Y": "28169.2510934",
		"LATITUDE": "1.27102703612",
		"LONGITUDE": "103.862447516",
		"CODE": "NS28",
		"FUTURE": false
	},
	{
		"BLK_NO": "81",
		"ROAD_NAME": "TELOK BLANGAH ROAD",
		"BUILDING": "HARBOURFRONT MRT STATION",
		"ADDRESS": "81 TELOK BLANGAH ROAD, SINGAPORE 098867",
		"POSTAL": "098867",
		"X": "26688.0366719",
		"Y": "27545.8534563",
		"LATITUDE": "1.26538938402",
		"LONGITUDE": "103.821530157",
		"CODE": "NE1",
		"FUTURE": false
	},
	{
		"BLK_NO": "300",
		"ROAD_NAME": "EU TONG SEN STREET",
		"BUILDING": "OUTRAM PARK MRT STATION",
		"ADDRESS": "300 EU TONG SEN STREET, SINGAPORE 059816",
		"POSTAL": "059816",
		"X": "28689.4468922",
		"Y": "29132.635704",
		"LATITUDE": "1.27973970679",
		"LONGITUDE": "103.839513521",
		"CODE": "NE3",
		"FUTURE": false
	},
	{
		"BLK_NO": "151",
		"ROAD_NAME": "NEW BRIDGE ROAD",
		"BUILDING": "CHINATOWN MRT STATION",
		"ADDRESS": "151 NEW BRIDGE ROAD, SINGAPORE 059443",
		"POSTAL": "059443",
		"X": "29124.958472",
		"Y": "29643.4785747",
		"LATITUDE": "1.284359578",
		"LONGITUDE": "103.843426776",
		"CODE": "NE4",
		"FUTURE": false
	},
	{
		"BLK_NO": "10",
		"ROAD_NAME": "EU TONG SEN STREET",
		"BUILDING": "CLARKE QUAY MRT STATION",
		"ADDRESS": "10 EU TONG SEN STREET, SINGAPORE 059815",
		"POSTAL": "059815",
		"X": "29473.1249443",
		"Y": "30088.7037862",
		"LATITUDE": "1.28838602408",
		"LONGITUDE": "103.84655521",
		"CODE": "NE5",
		"FUTURE": false
	},
	{
		"BLK_NO": "60",
		"ROAD_NAME": "ORCHARD ROAD",
		"BUILDING": "DHOBY GHAUT MRT STATION",
		"ADDRESS": "60 ORCHARD ROAD, SINGAPORE 238889",
		"POSTAL": "238889",
		"X": "29354.3680562",
		"Y": "31340.3479005",
		"LATITUDE": "1.29970545853",
		"LONGITUDE": "103.845488184",
		"CODE": "NE6",
		"FUTURE": false
	},
	{
		"BLK_NO": "60",
		"ROAD_NAME": "BUKIT TIMAH ROAD",
		"BUILDING": "LITTLE INDIA MRT STATION",
		"ADDRESS": "60 BUKIT TIMAH ROAD, SINGAPORE 229900",
		"POSTAL": "229900",
		"X": "29817.1981864",
		"Y": "32124.8312324",
		"LATITUDE": "1.30680002561",
		"LONGITUDE": "103.849646966",
		"CODE": "NE7",
		"FUTURE": false
	},
	{
		"BLK_NO": "250",
		"ROAD_NAME": "RACE COURSE ROAD",
		"BUILDING": "FARRER PARK MRT STATION",
		"ADDRESS": "250 RACE COURSE ROAD, SINGAPORE 218703",
		"POSTAL": "218703",
		"X": "30243.5206486",
		"Y": "32689.3795552",
		"LATITUDE": "1.31190557326",
		"LONGITUDE": "103.853477717",
		"CODE": "NE8",
		"FUTURE": false
	},
	{
		"BLK_NO": "900",
		"ROAD_NAME": "SERANGOON ROAD",
		"BUILDING": "BOON KENG MRT STATION",
		"ADDRESS": "900 SERANGOON ROAD, SINGAPORE 328260",
		"POSTAL": "328260",
		"X": "31144.0450132",
		"Y": "33510.9746133",
		"LATITUDE": "1.31933570923",
		"LONGITUDE": "103.861569454",
		"CODE": "NE9",
		"FUTURE": false
	},
	{
		"BLK_NO": "55",
		"ROAD_NAME": "UPPER SERANGOON ROAD",
		"BUILDING": "POTONG PASIR MRT STATION",
		"ADDRESS": "55 UPPER SERANGOON ROAD, SINGAPORE 347694",
		"POSTAL": "347694",
		"X": "31977.1677237",
		"Y": "34842.7289396",
		"LATITUDE": "1.33137952498",
		"LONGITUDE": "103.869055665",
		"CODE": "NE10",
		"FUTURE": false
	},
	{
		"BLK_NO": "400",
		"ROAD_NAME": "UPPER SERANGOON ROAD",
		"BUILDING": "WOODLEIGH MRT STATION",
		"ADDRESS": "400 UPPER SERANGOON ROAD, SINGAPORE 347695",
		"POSTAL": "347695",
		"X": "32173.3185749",
		"Y": "35706.3793634",
		"LATITUDE": "1.33919004519",
		"LONGITUDE": "103.870818309",
		"CODE": "NE11",
		"FUTURE": false
	},
	{
		"BLK_NO": "600",
		"ROAD_NAME": "UPPER SERANGOON ROAD",
		"BUILDING": "SERANGOON MRT STATION",
		"ADDRESS": "600 UPPER SERANGOON ROAD, SINGAPORE 534801",
		"POSTAL": "534801",
		"X": "32480.0726038",
		"Y": "36869.3923441",
		"LATITUDE": "1.34970787487",
		"LONGITUDE": "103.873574847",
		"CODE": "NE12",
		"FUTURE": false
	},
	{
		"BLK_NO": "900",
		"ROAD_NAME": "UPPER SERANGOON ROAD",
		"BUILDING": "KOVAN MRT STATION",
		"ADDRESS": "900 UPPER SERANGOON ROAD, SINGAPORE 534799",
		"POSTAL": "534799",
		"X": "33758.7578019",
		"Y": "38027.2794418",
		"LATITUDE": "1.36017917065",
		"LONGITUDE": "103.885064856",
		"CODE": "NE13",
		"FUTURE": false
	},
	{
		"BLK_NO": "80",
		"ROAD_NAME": "HOUGANG CENTRAL",
		"BUILDING": "HOUGANG MRT STATION",
		"ADDRESS": "80 HOUGANG CENTRAL, SINGAPORE 538758",
		"POSTAL": "538758",
		"X": "34572.875881",
		"Y": "39256.131159",
		"LATITUDE": "1.37129229221",
		"LONGITUDE": "103.892380519",
		"CODE": "NE14",
		"FUTURE": false
	},
	{
		"BLK_NO": "10",
		"ROAD_NAME": "SENGKANG CENTRAL",
		"BUILDING": "BUANGKOK MRT STATION",
		"ADDRESS": "10 SENGKANG CENTRAL, SINGAPORE 545061",
		"POSTAL": "545061",
		"X": "34655.3131561",
		"Y": "40537.2069225",
		"LATITUDE": "1.38287785835",
		"LONGITUDE": "103.893121564",
		"CODE": "NE15",
		"FUTURE": false
	},
	{
		"BLK_NO": "5",
		"ROAD_NAME": "SENGKANG SQUARE",
		"BUILDING": "SENGKANG MRT STATION",
		"ADDRESS": "5 SENGKANG SQUARE, SINGAPORE 545062",
		"POSTAL": "545062",
		"X": "34918.2740132",
		"Y": "41512.1276907",
		"LATITUDE": "1.39169462602",
		"LONGITUDE": "103.895484694",
		"CODE": "NE16",
		"FUTURE": false
	},
	{
		"BLK_NO": "70",
		"ROAD_NAME": "PUNGGOL CENTRAL",
		"BUILDING": "PUNGGOL MRT STATION",
		"ADDRESS": "70 PUNGGOL CENTRAL, SINGAPORE 828868",
		"POSTAL": "828868",
		"X": "35651.3846465",
		"Y": "42933.2693661",
		"LATITUDE": "1.40454672748",
		"LONGITUDE": "103.902072639",
		"CODE": "NE17",
		"FUTURE": false
	},
	{
		"BLK_NO": "13",
		"ROAD_NAME": "ORCHARD ROAD",
		"BUILDING": "DHOBY GHAUT MRT STATION",
		"ADDRESS": "13 ORCHARD ROAD, SINGAPORE 238893",
		"POSTAL": "238893",
		"X": "29450.0130989",
		"Y": "31241.3783738",
		"LATITUDE": "1.29881040867",
		"LONGITUDE": "103.846347593",
		"CODE": "CC1",
		"FUTURE": false
	},
	{
		"BLK_NO": "65",
		"ROAD_NAME": "BRAS BASAH ROAD",
		"BUILDING": "BRAS BASAH MRT STATION",
		"ADDRESS": "65 BRAS BASAH ROAD, SINGAPORE 189561",
		"POSTAL": "189561",
		"X": "29930.7673843",
		"Y": "31025.9015966",
		"LATITUDE": "1.2968616865",
		"LONGITUDE": "103.850667372",
		"CODE": "CC2",
		"FUTURE": false
	},
	{
		"BLK_NO": "90",
		"ROAD_NAME": "BRAS BASAH ROAD",
		"BUILDING": "ESPLANADE MRT STATION",
		"ADDRESS": "90 BRAS BASAH ROAD, SINGAPORE 189562",
		"POSTAL": "189562",
		"X": "30421.9934839",
		"Y": "30671.6277716",
		"LATITUDE": "1.29365772454",
		"LONGITUDE": "103.855081226",
		"CODE": "CC3",
		"FUTURE": false
	},
	{
		"BLK_NO": "2",
		"ROAD_NAME": "TEMASEK AVENUE",
		"BUILDING": "PROMENADE MRT STATION",
		"ADDRESS": "2 TEMASEK AVENUE, SINGAPORE 039193",
		"POSTAL": "039193",
		"X": "31004.7510862",
		"Y": "30711.4196066",
		"LATITUDE": "1.29401753727",
		"LONGITUDE": "103.860317556",
		"CODE": "CC4",
		"FUTURE": false
	},
	{
		"BLK_NO": "20",
		"ROAD_NAME": "REPUBLIC AVENUE",
		"BUILDING": "NICOLL HIGHWAY MRT STATION",
		"ADDRESS": "20 REPUBLIC AVENUE, SINGAPORE 038970",
		"POSTAL": "038970",
		"X": "31374.1708287",
		"Y": "31347.1515682",
		"LATITUDE": "1.29976683498",
		"LONGITUDE": "103.863637019",
		"CODE": "CC5",
		"FUTURE": false
	},
	{
		"BLK_NO": "3",
		"ROAD_NAME": "STADIUM WALK",
		"BUILDING": "STADIUM MRT STATION",
		"ADDRESS": "3 STADIUM WALK, SINGAPORE 397692",
		"POSTAL": "397692",
		"X": "32676.3477051",
		"Y": "31683.9407594",
		"LATITUDE": "1.30281246847",
		"LONGITUDE": "103.875337711",
		"CODE": "CC6",
		"FUTURE": false
	},
	{
		"BLK_NO": "301",
		"ROAD_NAME": "MOUNTBATTEN ROAD",
		"BUILDING": "MOUNTBATTEN MRT STATION",
		"ADDRESS": "301 MOUNTBATTEN ROAD, SINGAPORE 398006",
		"POSTAL": "398006",
		"X": "33476.5634269",
		"Y": "32058.7418467",
		"LATITUDE": "1.30620190525",
		"LONGITUDE": "103.882528081",
		"CODE": "CC7",
		"FUTURE": false
	},
	{
		"BLK_NO": "201",
		"ROAD_NAME": "OLD AIRPORT ROAD",
		"BUILDING": "DAKOTA MRT STATION",
		"ADDRESS": "201 OLD AIRPORT ROAD, SINGAPORE 397973",
		"POSTAL": "397973",
		"X": "34204.0252977",
		"Y": "32318.1744558",
		"LATITUDE": "1.30854798388",
		"LONGITUDE": "103.889064718",
		"CODE": "CC8",
		"FUTURE": false
	},
	{
		"BLK_NO": "15",
		"ROAD_NAME": "PAYA LEBAR ROAD",
		"BUILDING": "PAYA LEBAR MRT STATION",
		"ADDRESS": "15 PAYA LEBAR ROAD, SINGAPORE 409049",
		"POSTAL": "409049",
		"X": "34559.6916921",
		"Y": "33280.1181589",
		"LATITUDE": "1.31724738513",
		"LONGITUDE": "103.892260754",
		"CODE": "CC9",
		"FUTURE": false
	},
	{
		"BLK_NO": "171",
		"ROAD_NAME": "PAYA LEBAR ROAD",
		"BUILDING": "MACPHERSON MRT STATION",
		"ADDRESS": "171 PAYA LEBAR ROAD, SINGAPORE 409048",
		"POSTAL": "409048",
		"X": "34351.6177675",
		"Y": "34256.5138255",
		"LATITUDE": "1.32607760172",
		"LONGITUDE": "103.890391306",
		"CODE": "CC10",
		"FUTURE": false
	},
	{
		"BLK_NO": "33",
		"ROAD_NAME": "UPPER PAYA LEBAR ROAD",
		"BUILDING": "TAI SENG MRT STATION",
		"ADDRESS": "33 UPPER PAYA LEBAR ROAD, SINGAPORE 534803",
		"POSTAL": "534803",
		"X": "34133.6571995",
		"Y": "35254.3904683",
		"LATITUDE": "1.33510208508",
		"LONGITUDE": "103.888433013",
		"CODE": "CC11",
		"FUTURE": false
	},
	{
		"BLK_NO": "90",
		"ROAD_NAME": "BARTLEY ROAD",
		"BUILDING": "BARTLEY MRT STATION",
		"ADDRESS": "90 BARTLEY ROAD, SINGAPORE 539788",
		"POSTAL": "539788",
		"X": "33214.9339675",
		"Y": "36072.5255326",
		"LATITUDE": "1.34250117805",
		"LONGITUDE": "103.880177899",
		"CODE": "CC12",
		"FUTURE": false
	},
	{
		"BLK_NO": "21",
		"ROAD_NAME": "SERANGOON CENTRAL",
		"BUILDING": "SERANGOON MRT STATION",
		"ADDRESS": "21 SERANGOON CENTRAL, SINGAPORE 556082",
		"POSTAL": "556082",
		"X": "32390.6852548",
		"Y": "36971.7545486",
		"LATITUDE": "1.35063361527",
		"LONGITUDE": "103.87277166",
		"CODE": "CC13",
		"FUTURE": false
	},
	{
		"BLK_NO": "150",
		"ROAD_NAME": "SERANGOON AVENUE 3",
		"BUILDING": "LORONG CHUAN MRT STATION",
		"ADDRESS": "150 SERANGOON AVENUE 3, SINGAPORE 554533",
		"POSTAL": "554533",
		"X": "31431.4054671",
		"Y": "37079.944369",
		"LATITUDE": "1.35161217075",
		"LONGITUDE": "103.864151939",
		"CODE": "CC14",
		"FUTURE": false
	},
	{
		"BLK_NO": "17",
		"ROAD_NAME": "BISHAN PLACE",
		"BUILDING": "BISHAN MRT STATION",
		"ADDRESS": "17 BISHAN PLACE, SINGAPORE 579842",
		"POSTAL": "579842",
		"X": "29762.3506627",
		"Y": "37046.3698805",
		"LATITUDE": "1.35130867994",
		"LONGITUDE": "103.849154419",
		"CODE": "CC15",
		"FUTURE": false
	},
	{
		"BLK_NO": "60",
		"ROAD_NAME": "MARYMOUNT ROAD",
		"BUILDING": "MARYMOUNT MRT STATION",
		"ADDRESS": "60 MARYMOUNT ROAD, SINGAPORE 573993",
		"POSTAL": "573993",
		"X": "28679.3687735",
		"Y": "36758.7136479",
		"LATITUDE": "1.34870726345",
		"LONGITUDE": "103.839423132",
		"CODE": "CC16",
		"FUTURE": false
	},
	{
		"BLK_NO": "38",
		"ROAD_NAME": "TOA PAYOH RISE",
		"BUILDING": "CALDECOTT MRT STATION",
		"ADDRESS": "38 TOA PAYOH RISE, SINGAPORE 298113",
		"POSTAL": "298113",
		"X": "28691.2450525",
		"Y": "35538.7680124",
		"LATITUDE": "1.33767450816",
		"LONGITUDE": "103.83952982",
		"CODE": "CC17",
		"FUTURE": false
	},
	{
		"BLK_NO": "490",
		"ROAD_NAME": "JALAN MASHHOR",
		"BUILDING": "BUKIT BROWN MRT STATION",
		"ADDRESS": "490 JALAN MASHHOR, SINGAPORE 299176",
		"POSTAL": "299176",
		"X": "27707.416568",
		"Y": "35102.4802706",
		"LATITUDE": "1.33372888296",
		"LONGITUDE": "103.83068955",
		"CODE": "CC18",
		"FUTURE": true
	},
	{
		"BLK_NO": "100",
		"ROAD_NAME": "CLUNY PARK ROAD",
		"BUILDING": "BOTANIC GARDENS MRT STATION",
		"ADDRESS": "100 CLUNY PARK ROAD, SINGAPORE 257494",
		"POSTAL": "257494",
		"X": "25959.4046105",
		"Y": "33817.7525236",
		"LATITUDE": "1.3221101932",
		"LONGITUDE": "103.81498275",
		"CODE": "CC19",
		"FUTURE": false
	},
	{
		"BLK_NO": "71",
		"ROAD_NAME": "FARRER ROAD",
		"BUILDING": "FARRER ROAD MRT STATION",
		"ADDRESS": "71 FARRER ROAD, SINGAPORE 268857",
		"POSTAL": "268857",
		"X": "25113.2011974",
		"Y": "33301.2602245",
		"LATITUDE": "1.31743915159",
		"LONGITUDE": "103.807379214",
		"CODE": "CC20",
		"FUTURE": false
	},
	{
		"BLK_NO": "200",
		"ROAD_NAME": "HOLLAND AVENUE",
		"BUILDING": "HOLLAND VILLAGE MRT STATION",
		"ADDRESS": "200 HOLLAND AVENUE, SINGAPORE 278995",
		"POSTAL": "278995",
		"X": "23891.2152274",
		"Y": "32726.4128268",
		"LATITUDE": "1.31224029632",
		"LONGITUDE": "103.796399122",
		"CODE": "CC21",
		"FUTURE": false
	},
	{
		"BLK_NO": "150",
		"ROAD_NAME": "NORTH BUONA VISTA ROAD",
		"BUILDING": "BUONA VISTA MRT STATION",
		"ADDRESS": "150 NORTH BUONA VISTA ROAD, SINGAPORE 139350",
		"POSTAL": "139350",
		"X": "23257.9930265",
		"Y": "32106.5630514",
		"LATITUDE": "1.30663450405",
		"LONGITUDE": "103.790709404",
		"CODE": "CC22",
		"FUTURE": false
	},
	{
		"BLK_NO": "9",
		"ROAD_NAME": "AYER RAJAH AVENUE",
		"BUILDING": "ONE-NORTH MRT STATION",
		"ADDRESS": "9 AYER RAJAH AVENUE, SINGAPORE 138647",
		"POSTAL": "138647",
		"X": "22896.0731154",
		"Y": "31346.4084892",
		"LATITUDE": "1.29975987849",
		"LONGITUDE": "103.787457508",
		"CODE": "CC23",
		"FUTURE": false
	},
	{
		"BLK_NO": "301",
		"ROAD_NAME": "SOUTH BUONA VISTA ROAD",
		"BUILDING": "KENT RIDGE MRT STATION",
		"ADDRESS": "301 SOUTH BUONA VISTA ROAD, SINGAPORE 118177",
		"POSTAL": "118177",
		"X": "22574.9693684",
		"Y": "30658.3189089",
		"LATITUDE": "1.29353698622",
		"LONGITUDE": "103.784572367",
		"CODE": "CC24",
		"FUTURE": false
	},
	{
		"BLK_NO": "270",
		"ROAD_NAME": "PASIR PANJANG ROAD",
		"BUILDING": "HAW PAR VILLA MRT STATION",
		"ADDRESS": "270 PASIR PANJANG ROAD, SINGAPORE 117396",
		"POSTAL": "117396",
		"X": "22261.1430738",
		"Y": "29445.802096",
		"LATITUDE": "1.28257135827",
		"LONGITUDE": "103.781752725",
		"CODE": "CC25",
		"FUTURE": false
	},
	{
		"BLK_NO": "119",
		"ROAD_NAME": "PASIR PANJANG ROAD",
		"BUILDING": "PASIR PANJANG MRT STATION",
		"ADDRESS": "119 PASIR PANJANG ROAD, SINGAPORE 117424",
		"POSTAL": "117424",
		"X": "23329.2647148",
		"Y": "28742.7657616",
		"LATITUDE": "1.27621352234",
		"LONGITUDE": "103.791350313",
		"CODE": "CC26",
		"FUTURE": false
	},
	{
		"BLK_NO": "701",
		"ROAD_NAME": "TELOK BLANGAH ROAD",
		"BUILDING": "LABRADOR PARK MRT STATION",
		"ADDRESS": "701 TELOK BLANGAH ROAD, SINGAPORE 109029",
		"POSTAL": "109029",
		"X": "24584.7750496",
		"Y": "28304.9440989",
		"LATITUDE": "1.2722541775",
		"LONGITUDE": "103.802631579",
		"CODE": "CC27",
		"FUTURE": false
	},
	{
		"BLK_NO": "463",
		"ROAD_NAME": "TELOK BLANGAH ROAD",
		"BUILDING": "TELOK BLANGAH MRT STATION",
		"ADDRESS": "463 TELOK BLANGAH ROAD, SINGAPORE 109028",
		"POSTAL": "109028",
		"X": "25378.2908018",
		"Y": "28133.7990516",
		"LATITUDE": "1.27070647718",
		"LONGITUDE": "103.809761611",
		"CODE": "CC28",
		"FUTURE": false
	},
	{
		"BLK_NO": "81",
		"ROAD_NAME": "TELOK BLANGAH ROAD",
		"BUILDING": "HARBOURFRONT MRT STATION",
		"ADDRESS": "81 TELOK BLANGAH ROAD, SINGAPORE 098867",
		"POSTAL": "098867",
		"X": "26688.0366719",
		"Y": "27545.8534563",
		"LATITUDE": "1.26538938402",
		"LONGITUDE": "103.821530157",
		"CODE": "CC29",
		"FUTURE": false
	},
	{
		"BLK_NO": "11",
		"ROAD_NAME": "BAYFRONT AVENUE",
		"BUILDING": "BAYFRONT MRT STATION",
		"ADDRESS": "11 BAYFRONT AVENUE, SINGAPORE 018957",
		"POSTAL": "018957",
		"X": "30867.0092712",
		"Y": "29368.6250332",
		"LATITUDE": "1.28187378879",
		"LONGITUDE": "103.859079765",
		"CODE": "CE1",
		"FUTURE": false
	},
	{
		"BLK_NO": "23",
		"ROAD_NAME": "PARK STREET",
		"BUILDING": "MARINA BAY MRT STATION",
		"ADDRESS": "23 PARK STREET, SINGAPORE 018926",
		"POSTAL": "018926",
		"X": "30462.734977",
		"Y": "28746.9336326",
		"LATITUDE": "1.27625146424",
		"LONGITUDE": "103.855447156",
		"CODE": "CE2",
		"FUTURE": false
	},
	{
		"BLK_NO": "950",
		"ROAD_NAME": "UPPER BUKIT TIMAH ROAD",
		"BUILDING": "BUKIT PANJANG MRT STATION",
		"ADDRESS": "950 UPPER BUKIT TIMAH ROAD, SINGAPORE 678213",
		"POSTAL": "678213",
		"X": "20011.3981217",
		"Y": "40108.683766",
		"LATITUDE": "1.37900211641",
		"LONGITUDE": "103.761535115",
		"CODE": "DT1",
		"FUTURE": false
	},
	{
		"BLK_NO": "1",
		"ROAD_NAME": "CASHEW ROAD",
		"BUILDING": "CASHEW MRT STATION",
		"ADDRESS": "1 CASHEW ROAD, SINGAPORE 679696",
		"POSTAL": "679696",
		"X": "20334.5589112",
		"Y": "39092.8585419",
		"LATITUDE": "1.36981544926",
		"LONGITUDE": "103.764439214",
		"CODE": "DT2",
		"FUTURE": false
	},
	{
		"BLK_NO": "510",
		"ROAD_NAME": "UPPER BUKIT TIMAH ROAD",
		"BUILDING": "HILLVIEW MRT STATION",
		"ADDRESS": "510 UPPER BUKIT TIMAH ROAD, SINGAPORE 678211",
		"POSTAL": "678211",
		"X": "20666.06755",
		"Y": "38266.7898456",
		"LATITUDE": "1.36234486804",
		"LONGITUDE": "103.767418254",
		"CODE": "DT3",
		"FUTURE": false
	},
	{
		"BLK_NO": "101",
		"ROAD_NAME": "UPPER BUKIT TIMAH ROAD",
		"BUILDING": "BEAUTY WORLD MRT STATION",
		"ADDRESS": "101 UPPER BUKIT TIMAH ROAD, SINGAPORE 588216",
		"POSTAL": "588216",
		"X": "21598.1664764",
		"Y": "35931.2358861",
		"LATITUDE": "1.34122317559",
		"LONGITUDE": "103.775794285",
		"CODE": "DT5",
		"FUTURE": false
	},
	{
		"BLK_NO": "2",
		"ROAD_NAME": "BLACKMORE DRIVE",
		"BUILDING": "KING ALBERT PARK MRT STATION",
		"ADDRESS": "2 BLACKMORE DRIVE, SINGAPORE 599987",
		"POSTAL": "599987",
		"X": "22444.4895691",
		"Y": "35316.3750311",
		"LATITUDE": "1.3356627623",
		"LONGITUDE": "103.783399113",
		"CODE": "DT6",
		"FUTURE": false
	},
	{
		"BLK_NO": "777",
		"ROAD_NAME": "BUKIT TIMAH ROAD",
		"BUILDING": "SIXTH AVENUE MRT STATION",
		"ADDRESS": "777 BUKIT TIMAH ROAD, SINGAPORE 269784",
		"POSTAL": "269784",
		"X": "23947.7493739",
		"Y": "34785.0233011",
		"LATITUDE": "1.33085764536",
		"LONGITUDE": "103.796906838",
		"CODE": "DT7",
		"FUTURE": false
	},
	{
		"BLK_NO": "651",
		"ROAD_NAME": "BUKIT TIMAH ROAD",
		"BUILDING": "TAN KAH KEE MRT STATION",
		"ADDRESS": "651 BUKIT TIMAH ROAD, SINGAPORE 266268",
		"POSTAL": "266268",
		"X": "25155.6221095",
		"Y": "34198.8053115",
		"LATITUDE": "1.3255562352",
		"LONGITUDE": "103.807760305",
		"CODE": "DT8",
		"FUTURE": false
	},
	{
		"BLK_NO": "491",
		"ROAD_NAME": "BUKIT TIMAH ROAD",
		"BUILDING": "BOTANIC GARDENS MRT STATION",
		"ADDRESS": "491 BUKIT TIMAH ROAD, SINGAPORE 259777",
		"POSTAL": "259777",
		"X": "26074.1720876",
		"Y": "33859.5354774",
		"LATITUDE": "1.3224880709",
		"LONGITUDE": "103.816013994",
		"CODE": "DT9",
		"FUTURE": false
	},
	{
		"BLK_NO": "92",
		"ROAD_NAME": "STEVENS ROAD",
		"BUILDING": "STEVENS MRT STATION",
		"ADDRESS": "92 STEVENS ROAD, SINGAPORE 257877",
		"POSTAL": "257877",
		"X": "27188.2299644",
		"Y": "33591.6608552",
		"LATITUDE": "1.32006555751",
		"LONGITUDE": "103.826024402",
		"CODE": "DT10",
		"FUTURE": false
	},
	{
		"BLK_NO": "235",
		"ROAD_NAME": "BUKIT TIMAH ROAD",
		"BUILDING": "NEWTON MRT STATION",
		"ADDRESS": "235 BUKIT TIMAH ROAD, SINGAPORE 229901",
		"POSTAL": "229901",
		"X": "28489.2364384",
		"Y": "32920.1726889",
		"LATITUDE": "1.31399286265",
		"LONGITUDE": "103.837714613",
		"CODE": "DT11",
		"FUTURE": false
	},
	{
		"BLK_NO": "62",
		"ROAD_NAME": "BUKIT TIMAH ROAD",
		"BUILDING": "LITTLE INDIA MRT STATION",
		"ADDRESS": "62 BUKIT TIMAH ROAD, SINGAPORE 229902",
		"POSTAL": "229902",
		"X": "29707.4618838",
		"Y": "32148.9626246",
		"LATITUDE": "1.30701826765",
		"LONGITUDE": "103.848660935",
		"CODE": "DT12",
		"FUTURE": false
	},
	{
		"BLK_NO": "11",
		"ROAD_NAME": "ROCHOR CANAL ROAD",
		"BUILDING": "ROCHOR MRT STATION",
		"ADDRESS": "11 ROCHOR CANAL ROAD, SINGAPORE 188505",
		"POSTAL": "188505",
		"X": "30164.7018504",
		"Y": "31798.8766778",
		"LATITUDE": "1.30385218528",
		"LONGITUDE": "103.852769429",
		"CODE": "DT13",
		"FUTURE": false
	},
	{
		"BLK_NO": "191",
		"ROAD_NAME": "ROCHOR ROAD",
		"BUILDING": "BUGIS MRT STATION",
		"ADDRESS": "191 ROCHOR ROAD, SINGAPORE 188476",
		"POSTAL": "188476",
		"X": "30649.548579",
		"Y": "31297.0167999",
		"LATITUDE": "1.29931350399",
		"LONGITUDE": "103.857125959",
		"CODE": "DT14",
		"FUTURE": false
	},
	{
		"BLK_NO": "10",
		"ROAD_NAME": "TEMASEK AVENUE",
		"BUILDING": "PROMENADE MRT STATION",
		"ADDRESS": "10 TEMASEK AVENUE, SINGAPORE 039194",
		"POSTAL": "039194",
		"X": "31068.6608139",
		"Y": "30586.9369543",
		"LATITUDE": "1.29289175383",
		"LONGITUDE": "103.8608918",
		"CODE": "DT15",
		"FUTURE": false
	},
	{
		"BLK_NO": "11",
		"ROAD_NAME": "BAYFRONT AVENUE",
		"BUILDING": "BAYFRONT MRT STATION",
		"ADDRESS": "11 BAYFRONT AVENUE, SINGAPORE 018957",
		"POSTAL": "018957",
		"X": "30867.0092712",
		"Y": "29368.6250332",
		"LATITUDE": "1.28187378879",
		"LONGITUDE": "103.859079765",
		"CODE": "DT16",
		"FUTURE": false
	},
	{
		"BLK_NO": "15",
		"ROAD_NAME": "CENTRAL BOULEVARD",
		"BUILDING": "DOWNTOWN MRT STATION",
		"ADDRESS": "15 CENTRAL BOULEVARD, SINGAPORE 018969",
		"POSTAL": "018969",
		"X": "30172.625948",
		"Y": "29100.1875779",
		"LATITUDE": "1.27944619018",
		"LONGITUDE": "103.852840444",
		"CODE": "DT17",
		"FUTURE": false
	},
	{
		"BLK_NO": "7",
		"ROAD_NAME": "CROSS STREET",
		"BUILDING": "TELOK AYER MRT STATION",
		"ADDRESS": "7 CROSS STREET, SINGAPORE 048416",
		"POSTAL": "048416",
		"X": "29706.1259156",
		"Y": "29390.1953908",
		"LATITUDE": "1.28206894769",
		"LONGITUDE": "103.848648781",
		"CODE": "DT18",
		"FUTURE": false
	},
	{
		"BLK_NO": "91",
		"ROAD_NAME": "UPPER CROSS STREET",
		"BUILDING": "CHINATOWN MRT STATION",
		"ADDRESS": "91 UPPER CROSS STREET, SINGAPORE 058362",
		"POSTAL": "058362",
		"X": "29316.0490007",
		"Y": "29628.4789424",
		"LATITUDE": "1.28422391919",
		"LONGITUDE": "103.845143799",
		"CODE": "DT19",
		"FUTURE": false
	},
	{
		"BLK_NO": "170",
		"ROAD_NAME": "RIVER VALLEY ROAD",
		"BUILDING": "FORT CANNING MRT STATION",
		"ADDRESS": "170 RIVER VALLEY ROAD, SINGAPORE 179038",
		"POSTAL": "179038",
		"X": "29225.2833688",
		"Y": "30541.2747649",
		"LATITUDE": "1.2924789276",
		"LONGITUDE": "103.844328269",
		"CODE": "DT20",
		"FUTURE": true
	},
	{
		"BLK_NO": "31",
		"ROAD_NAME": "BENCOOLEN STREET",
		"BUILDING": "BENCOOLEN MRT STATION",
		"ADDRESS": "31 BENCOOLEN STREET, SINGAPORE 189658",
		"POSTAL": "189658",
		"X": "29895.8639496",
		"Y": "31253.3258734",
		"LATITUDE": "1.29891843369",
		"LONGITUDE": "103.850353763",
		"CODE": "DT21",
		"FUTURE": true
	},
	{
		"BLK_NO": "90",
		"ROAD_NAME": "JALAN BESAR",
		"BUILDING": "JALAN BESAR MRT STATION",
		"ADDRESS": "90 JALAN BESAR, SINGAPORE 208826",
		"POSTAL": "208826",
		"X": "30445.8529788",
		"Y": "31944.7496235",
		"LATITUDE": "1.30517138781",
		"LONGITUDE": "103.855295713",
		"CODE": "DT22",
		"FUTURE": true
	},
	{
		"BLK_NO": "11",
		"ROAD_NAME": "KALLANG BAHRU",
		"BUILDING": "BENDEMEER MRT STATION",
		"ADDRESS": "11 KALLANG BAHRU, SINGAPORE 339356",
		"POSTAL": "339356",
		"X": "31300.8083794",
		"Y": "32884.7382025",
		"LATITUDE": "1.31367223257",
		"LONGITUDE": "103.862977987",
		"CODE": "DT23",
		"FUTURE": true
	},
	{
		"BLK_NO": "541",
		"ROAD_NAME": "KALLANG BAHRU",
		"BUILDING": "GEYLANG BAHRU MRT STATION",
		"ADDRESS": "541 KALLANG BAHRU, SINGAPORE 339355",
		"POSTAL": "339355",
		"X": "32293.7993761",
		"Y": "33750.9518099",
		"LATITUDE": "1.32150583811",
		"LONGITUDE": "103.871900625",
		"CODE": "DT24",
		"FUTURE": true
	},
	{
		"BLK_NO": "60",
		"ROAD_NAME": "MERPATI ROAD",
		"BUILDING": "MATTAR MRT STATION",
		"ADDRESS": "60 MERPATI ROAD, SINGAPORE 379314",
		"POSTAL": "379314",
		"X": "33556.5834402",
		"Y": "34344.8585333",
		"LATITUDE": "1.32687671501",
		"LONGITUDE": "103.88324751",
		"CODE": "DT25",
		"FUTURE": true
	},
	{
		"BLK_NO": "10",
		"ROAD_NAME": "CIRCUIT LINK",
		"BUILDING": "MACPHERSON MRT STATION",
		"ADDRESS": "10 CIRCUIT LINK, SINGAPORE 378956",
		"POSTAL": "378956",
		"X": "34230.0099985",
		"Y": "34264.5433465",
		"LATITUDE": "1.32615024293",
		"LONGITUDE": "103.889298596",
		"CODE": "DT26",
		"FUTURE": true
	},
	{
		"BLK_NO": "51",
		"ROAD_NAME": "UBI AVENUE 2",
		"BUILDING": "UBI MRT STATION",
		"ADDRESS": "51 UBI AVENUE 2, SINGAPORE 408899",
		"POSTAL": "408899",
		"X": "35334.8918334",
		"Y": "34687.4518223",
		"LATITUDE": "1.32997462901",
		"LONGITUDE": "103.899226655",
		"CODE": "DT27",
		"FUTURE": true
	},
	{
		"BLK_NO": "30",
		"ROAD_NAME": "KAKI BUKIT AVENUE 1",
		"BUILDING": "KAKI BUKIT MRT STATION",
		"ADDRESS": "30 KAKI BUKIT AVENUE 1, SINGAPORE 415804",
		"POSTAL": "415804",
		"X": "36362.422383",
		"Y": "35239.545808",
		"LATITUDE": "1.33496730164",
		"LONGITUDE": "103.908459734",
		"CODE": "DT28",
		"FUTURE": true
	},
	{
		"BLK_NO": "651",
		"ROAD_NAME": "BEDOK NORTH ROAD",
		"BUILDING": "BEDOK NORTH MRT STATION",
		"ADDRESS": "651 BEDOK NORTH ROAD, SINGAPORE 479481",
		"POSTAL": "479481",
		"X": "37421.7438196",
		"Y": "35214.680387",
		"LATITUDE": "1.33474211664",
		"LONGITUDE": "103.91797833",
		"CODE": "DT29",
		"FUTURE": true
	},
	{
		"BLK_NO": "371",
		"ROAD_NAME": "BEDOK NORTH AVENUE 3",
		"BUILDING": "BEDOK RESERVOIR MRT STATION",
		"ADDRESS": "371 BEDOK NORTH AVENUE 3, SINGAPORE 469724",
		"POSTAL": "469724",
		"X": "39008.3131623",
		"Y": "35421.0408713",
		"LATITUDE": "1.33660782955",
		"LONGITUDE": "103.932234623",
		"CODE": "DT30",
		"FUTURE": true
	},
	{
		"BLK_NO": "2",
		"ROAD_NAME": "TAMPINES AVENUE 4",
		"BUILDING": "TAMPINES WEST MRT STATION",
		"ADDRESS": "2 TAMPINES AVENUE 4, SINGAPORE 529683",
		"POSTAL": "529683",
		"X": "39698.5275853",
		"Y": "36406.0143331",
		"LATITUDE": "1.3455153056",
		"LONGITUDE": "103.938436971",
		"CODE": "DT31",
		"FUTURE": true
	},
	{
		"BLK_NO": "15",
		"ROAD_NAME": "TAMPINES CENTRAL 1",
		"BUILDING": "TAMPINES MRT STATION",
		"ADDRESS": "15 TAMPINES CENTRAL 1, SINGAPORE 529544",
		"POSTAL": "529544",
		"X": "40213.0284024",
		"Y": "37463.3696826",
		"LATITUDE": "1.35507742884",
		"LONGITUDE": "103.943060497",
		"CODE": "DT32",
		"FUTURE": true
	},
	{
		"BLK_NO": "20",
		"ROAD_NAME": "TAMPINES AVENUE 7",
		"BUILDING": "TAMPINES EAST MRT STATION",
		"ADDRESS": "20 TAMPINES AVENUE 7, SINGAPORE 529623",
		"POSTAL": "529623",
		"X": "41501.0748522",
		"Y": "37586.6177644",
		"LATITUDE": "1.35619148272",
		"LONGITUDE": "103.954634462",
		"CODE": "DT33",
		"FUTURE": true
	},
	{
		"BLK_NO": "690",
		"ROAD_NAME": "UPPER CHANGI ROAD EAST",
		"BUILDING": "UPPER CHANGI MRT STATION",
		"ADDRESS": "690 UPPER CHANGI ROAD EAST, SINGAPORE 485990",
		"POSTAL": "485990",
		"X": "42262.0766758",
		"Y": "35988.4036323",
		"LATITUDE": "1.34173748419",
		"LONGITUDE": "103.961471788",
		"CODE": "DT34",
		"FUTURE": true
	},
	{
		"BLK_NO": "2",
		"ROAD_NAME": "EXPO DRIVE",
		"BUILDING": "EXPO MRT STATION",
		"ADDRESS": "2 EXPO DRIVE, SINGAPORE 485985",
		"POSTAL": "485985",
		"X": "42362.7102757",
		"Y": "35285.6654072",
		"LATITUDE": "1.3353821374",
		"LONGITUDE": "103.962375707",
		"CODE": "DT35",
		"FUTURE": true
	},
	{
		"BLK_NO": "0",
		"ROAD_NAME": "WOODLANDS DRIVE 91",
		"BUILDING": "WOODLANDS NORTH MRT STATION",
		"ADDRESS": "NIL",
		"POSTAL": "NIL",
		"X": "22789.9127935",
		"Y": "47678.9425235",
		"LATITUDE": "1.4474654107",
		"LONGITUDE": "103.786500735",
		"CODE": "TE1",
		"FUTURE": true
	},
	{
		"BLK_NO": "11",
		"ROAD_NAME": "WOODLANDS SQUARE",
		"BUILDING": "WOODLANDS MRT STATION",
		"ADDRESS": "11 WOODLANDS SQUARE, SINGAPORE 737736",
		"POSTAL": "737736",
		"X": "22949.0321893",
		"Y": "46418.5578629",
		"LATITUDE": "1.43606698186",
		"LONGITUDE": "103.787930807",
		"CODE": "TE2",
		"FUTURE": true
	},
	{
		"BLK_NO": "130",
		"ROAD_NAME": "WOODLANDS AVENUE 1",
		"BUILDING": "WOODLANDS SOUTH MRT STATION",
		"ADDRESS": "130 WOODLANDS AVENUE 1, SINGAPORE 739070",
		"POSTAL": "739070",
		"X": "23540.3600501",
		"Y": "45463.8903408",
		"LATITUDE": "1.42743341643",
		"LONGITUDE": "103.793244602",
		"CODE": "TE3",
		"FUTURE": true
	},
	{
		"BLK_NO": "0",
		"ROAD_NAME": "UPPER THOMSON ROAD",
		"BUILDING": "SPRINGLEAF MRT STATION",
		"ADDRESS": "NIL",
		"POSTAL": "NIL",
		"X": "26272.9393033",
		"Y": "42162.5856922",
		"LATITUDE": "1.39757790694",
		"LONGITUDE": "103.817799543",
		"CODE": "TE4",
		"FUTURE": true
	},
	{
		"BLK_NO": "0",
		"ROAD_NAME": "LENTOR DRIVE",
		"BUILDING": "LENTOR MRT STATION",
		"ADDRESS": "NIL",
		"POSTAL": "NIL",
		"X": "28267.5855676",
		"Y": "40829.1738003",
		"LATITUDE": "1.38551905867",
		"LONGITUDE": "103.835723039",
		"CODE": "TE5",
		"FUTURE": true
	},
	{
		"BLK_NO": "0",
		"ROAD_NAME": "ANG MO KIO AVENUE 4",
		"BUILDING": "MAYFLOWER MRT STATION",
		"ADDRESS": "NIL",
		"POSTAL": "NIL",
		"X": "28361.5950495",
		"Y": "39274.9471906",
		"LATITUDE": "1.37146318831",
		"LONGITUDE": "103.836567767",
		"CODE": "TE6",
		"FUTURE": true
	},
	{
		"BLK_NO": "0",
		"ROAD_NAME": "SIN MING AVENUE",
		"BUILDING": "BRIGHT HILL MRT STATION",
		"ADDRESS": "NIL",
		"POSTAL": "NIL",
		"X": "28034.8406029",
		"Y": "38413.3680352",
		"LATITUDE": "1.36367137616",
		"LONGITUDE": "103.833631645",
		"CODE": "TE7",
		"FUTURE": true
	},
	{
		"BLK_NO": "0",
		"ROAD_NAME": "UPPER THOMSON ROAD",
		"BUILDING": "UPPER THOMSON MRT STATION",
		"ADDRESS": "NIL",
		"POSTAL": "NIL",
		"X": "27953.2465031",
		"Y": "37390.003692",
		"LATITUDE": "1.35441643365",
		"LONGITUDE": "103.832898469",
		"CODE": "TE8",
		"FUTURE": true
	},
	{
		"BLK_NO": "0",
		"ROAD_NAME": "TOA PAYOH RISE",
		"BUILDING": "CALDECOTT MRT STATION",
		"ADDRESS": "NIL",
		"POSTAL": "NIL",
		"X": "28761.5758",
		"Y": "35491.3431366",
		"LATITUDE": "1.33724561272",
		"LONGITUDE": "103.840161782",
		"CODE": "TE9",
		"FUTURE": true
	},
	{
		"BLK_NO": "0",
		"ROAD_NAME": "NIL",
		"BUILDING": "MOUNT PLEASANT MRT STATION",
		"ADDRESS": "NIL",
		"POSTAL": "NIL",
		"X": "28152.4307814",
		"Y": "34526.2823457",
		"LATITUDE": "1.32851795409",
		"LONGITUDE": "103.834688254",
		"CODE": "TE10",
		"FUTURE": true
	},
	{
		"BLK_NO": "0",
		"ROAD_NAME": "STEVENS ROAD",
		"BUILDING": "STEVENS MRT STATION",
		"ADDRESS": "NIL",
		"POSTAL": "NIL",
		"X": "27188.2299644",
		"Y": "33591.6608552",
		"LATITUDE": "1.32006555751",
		"LONGITUDE": "103.826024402",
		"CODE": "TE11",
		"FUTURE": true
	},
	{
		"BLK_NO": "0",
		"ROAD_NAME": "NAPIER ROAD",
		"BUILDING": "NAPIER MRT STATION",
		"ADDRESS": "NIL",
		"POSTAL": "NIL",
		"X": "26402.8026649",
		"Y": "32122.955919",
		"LATITUDE": "1.3067830779",
		"LONGITUDE": "103.818967004",
		"CODE": "TE12",
		"FUTURE": true
	},
	{
		"BLK_NO": "0",
		"ROAD_NAME": "ORCHARD BOULEVARD",
		"BUILDING": "ORCHARD BOULEVARD MRT STATION",
		"ADDRESS": "NIL",
		"POSTAL": "NIL",
		"X": "26958.8393582",
		"Y": "31642.232053",
		"LATITUDE": "1.30243560443",
		"LONGITUDE": "103.823963273",
		"CODE": "TE13",
		"FUTURE": true
	},
	{
		"BLK_NO": "0",
		"ROAD_NAME": "ORCHARD ROAD",
		"BUILDING": "ORCHARD MRT STATION",
		"ADDRESS": "NIL",
		"POSTAL": "NIL",
		"X": "27880.1256226",
		"Y": "31813.1134661",
		"LATITUDE": "1.30398101303",
		"LONGITUDE": "103.832241452",
		"CODE": "TE14",
		"FUTURE": true
	},
	{
		"BLK_NO": "0",
		"ROAD_NAME": "KIM SENG ROAD",
		"BUILDING": "GREAT WORLD MRT STATION",
		"ADDRESS": "NIL",
		"POSTAL": "NIL",
		"X": "28045.2447381",
		"Y": "30688.9787722",
		"LATITUDE": "1.29381473465",
		"LONGITUDE": "103.833725123",
		"CODE": "TE15",
		"FUTURE": true
	},
	{
		"BLK_NO": "0",
		"ROAD_NAME": "OUTRAM ROAD",
		"BUILDING": "OUTRAM PARK MRT STATION",
		"ADDRESS": "NIL",
		"POSTAL": "NIL",
		"X": "28646.3738563",
		"Y": "29316.7727082",
		"LATITUDE": "1.2814049782",
		"LONGITUDE": "103.839126497",
		"CODE": "TE17",
		"FUTURE": true
	},
	{
		"BLK_NO": "0",
		"ROAD_NAME": "SOUTH BRIDGE ROAD",
		"BUILDING": "MAXWELL MRT STATION",
		"ADDRESS": "NIL",
		"POSTAL": "NIL",
		"X": "29171.7996902",
		"Y": "29220.199195",
		"LATITUDE": "1.2805315861",
		"LONGITUDE": "103.843847647",
		"CODE": "TE18",
		"FUTURE": true
	},
	{
		"BLK_NO": "0",
		"ROAD_NAME": "SHENTON WAY",
		"BUILDING": "SHENTON WAY MRT STATION",
		"ADDRESS": "NIL",
		"POSTAL": "NIL",
		"X": "29901.6608134",
		"Y": "28910.4424914",
		"LATITUDE": "1.27773021966",
		"LONGITUDE": "103.850405709",
		"CODE": "TE19",
		"FUTURE": true
	},
	{
		"BLK_NO": "0",
		"ROAD_NAME": "PARK STREET",
		"BUILDING": "MARINA BAY MRT STATION",
		"ADDRESS": "NIL",
		"POSTAL": "NIL",
		"X": "30462.734977",
		"Y": "28746.9336326",
		"LATITUDE": "1.27625146424",
		"LONGITUDE": "103.855447156",
		"CODE": "TE20",
		"FUTURE": true
	},
	{
		"BLK_NO": "0",
		"ROAD_NAME": "MARINA BOULEVARD",
		"BUILDING": "MARINA SOUTH MRT STATION",
		"ADDRESS": "NIL",
		"POSTAL": "NIL",
		"X": "31354.7019167",
		"Y": "28564.7868392",
		"LATITUDE": "1.27460411075",
		"LONGITUDE": "103.863461787",
		"CODE": "TE21",
		"FUTURE": true
	},
	{
		"BLK_NO": "0",
		"ROAD_NAME": "MARINA GARDENS DRIVE",
		"BUILDING": "GARDENS BY THE BAY MRT STATION",
		"ADDRESS": "NIL",
		"POSTAL": "NIL",
		"X": "31862.5102404",
		"Y": "29066.9757604",
		"LATITUDE": "1.2791456728",
		"LONGITUDE": "103.868024688",
		"CODE": "TE22",
		"FUTURE": true
	}
]